["Kanpur Nagar": {
      "pensioner_count": [
        17975,
        31065
      ],
      "internet_penetration": [
        0.67,
        0.67
      ],
      "DLC_potential": [
        12043,
        20813
      ],
      "DLC_success": [
        1153,
        2574
      ],
      "DLC_failed": [
        715,
        468
      ],
      "DLC_success_channels": [
        {
          "lic": 4118,
          "epfo": 3798,
          "banks": 1809,
          "post": 772
        },
        {
          "lic": 1532,
          "epfo": 2284,
          "banks": 2380,
          "post": 332
        }
      ],
      "DLC_failed_channels": [
        {
          "lic": 284,
          "epfo": 202,
          "banks": 184,
          "post": 25
        },
        {
          "lic": 81,
          "epfo": 139,
          "banks": 158,
          "post": 44
        }
      ]
    },
    {
    "PDA": [
        {
            "type": "Bank",
            "lat": 26.455065,
            "lng": 80.288448,
            "dtname": "Kanpur Nagar",
            "name": "SBI Sanjay Nagar",
            "DLC_success": 1047,
            "DLC_failure": 86
        },
        {
            "type": "Bank",
            "lat": 26.481194,
            "lng": 80.2731835,
            "dtname": "Kanpur Nagar",
            "name": "SBI Keshavapuram",
            "DLC_success": 1047,
            "DLC_failure": 85
        },
        {
            "type": "Bank",
            "lat": 26.500092,
            "lng": 80.243142,
            "dtname": "Kanpur Nagar",
            "name": "SBI Kalyanpur",
            "DLC_success": 1047,
            "DLC_failure": 85
        },
        {
            "type": "Bank",
            "lat": 26.466289,
            "lng":  80.266317,
            "dtname": "Kanpur Nagar",
            "name": "SBI Panki",
            "DLC_success": 1048,
            "DLC_failure": 86
        },
        {
            "type": "Post Office",
            "lat": 26.474343,
            "lng": 80.352725,
            "dtname": "Kanpur Nagar",
            "name": "Head Post Office",
            "DLC_success": 300,
            "DLC_failure": 5
        },
        {
            "type": "Post Office",
            "lat": 26.475149,
            "lng": 80.342383,
            "dtname": "Kanpur Nagar",
            "name": "Naveen Market",
            "DLC_success": 280,
            "DLC_failure": 6
        },
        {
            "type": "Post Office",
            "lat": 26.475956, 
            "lng": 80.338392,
            "dtname": "Kanpur Nagar",
            "name": "Colonelganj",
            "DLC_success": 20,
            "DLC_failure": 30
        },
        {
            "type": "Post Office",
            "lat": 26.482295,
            "lng": 80.324830,
            "dtname": "Kanpur Nagar",
            "name": "Arya Nagar",
            "DLC_success": 84,
            "DLC_failure": 4
        },
        {
            "type": "Post Office",
            "lat": 26.471616, 
            "lng": 80.321740,
            "dtname": "Kanpur Nagar",
            "name": "Ramakrishna Nagar",
            "DLC_success": 84,
            "DLC_failure": 4
        },
        {
            "type": "Post Office",
            "lat": 26.016569,
            "lng": 80.142259,
            "dtname": "Kanpur Nagar",
            "name": "Bibipur",
            "DLC_success": 84,
            "DLC_failure": 4
        },
        {
            "type": "Post Office",
            "lat": 26.482707,
            "lng": 80.312416,
            "dtname": "Kanpur Nagar",
            "name": "Swaroop Nagar",
            "DLC_success": 84,
            "DLC_failure": 4
        },
        {
            "type": "Post Office",
            "lat": 26.151408,
            "lng":  80.170536,
            "dtname": "Kanpur Nagar",
            "name": "Ghatampur S.O.",
            "DLC_success": 84,
            "DLC_failure": 3
        },
        {
            "type": "Post Office",
            "lat": 26.445601,
            "lng":  80.384747,
            "dtname": "Kanpur Nagar",
            "name": "Jajmau",
            "DLC_success": 84,
            "DLC_failure": 3
        },
        {
            "type": "Post Office",
            "lat": 26.839007,
            "lng":  80.065906,
            "dtname": "Kanpur Nagar",
            "name": "Bilhaur",
            "DLC_success": 84,
            "DLC_failure": 2
        },
        {
            "type": "Post Office",
            "lat": 26.282753,
            "lng": 80.487817,
            "dtname": "Kanpur Nagar",
            "name": "Sub Post Office Sarsaul",
            "DLC_success": 84,
            "DLC_failure": 2
        },
        {
            "type": "Post Office",
            "lat": 26.608702,
            "lng":  80.272376,
            "dtname": "Kanpur Nagar",
            "name": "Bithoor",
            "DLC_success": 82,
            "DLC_failure": 2
        }, 
        {
            "type": "LIC",
            "lat": 26.474008,  
            "lng": 80.360388, 
            "dtname": "Kanpur Nagar",
            "name": "Mall Road",
            "DLC_success": 1413,
            "DLC_failure": 91
        },
        {
            "type": "LIC",
            "lat": 26.487657,  
            "lng": 80.326262, 
            "dtname": "Kanpur Nagar",
            "name": "Swaroop Nagar",
            "DLC_success": 1412,
            "DLC_failure": 91
        },
        {
            "type": "LIC",
            "lat": 26.480617,
            "lng": 80.253473,
            "dtname": "Kanpur Nagar",
            "name": "Armapur",
            "DLC_success": 1412,
            "DLC_failure": 91
        },
        {
            "type": "LIC",
            "lat": 26.429939,
            "lng": 80.415616,
            "dtname": "Kanpur Nagar",
            "name": "Ramadevi",
            "DLC_success": 1413,
            "DLC_failure": 92
        },
        {
            "type": "LIC",
            "lat": 26.151888,
            "lng": 80.158091,
            "dtname": "Kanpur Nagar",
            "name": "Ghatampur",
            "DLC_success": 0,
            "DLC_failure": 0
        },
        {
            "type": "LIC",
            "lat": 25.960011,
            "lng": 80.160618,
            "dtname": "Kanpur Nagar",
            "name": "Hamirpur",
            "DLC_success": 0,
            "DLC_failure": 0
        },
        {
            "type": "EPF",
            "lat": 26.514389, 
            "lng": 80.257935, 
            "dtname": "Kanpur Nagar",
            "name": "Vikas Kumar EPF Online Center",
            "DLC_success": 2027,
            "DLC_failure": 114
        }, 
        {
            "type": "EPF",
            "lat": 26.477872,
            "lng": 80.287893,
            "dtname": "Kanpur Nagar",
            "name": "Provident Fund Commissioners Office",
            "DLC_success": 2027,
            "DLC_failure": 113
        }, 
        {
            "type": "EPF",
            "lat": 26.476182, 
            "lng": 80.311067,
            "dtname": "Kanpur Nagar",
            "name": "Bhavishya Nidhi Bhawan",
            "DLC_success": 2028,
            "DLC_failure": 114
        }
    ]
}


